---
- name: "Бульвар Рокоссовского"
  dates:
  - since: 1990-08-01
  lines:
  - name: "1SL"
  coords:
    lat: 55.8148
    lon: 37.7342
- name: "Черкизовская"
  dates:
  - since: 1990-08-01
  lines:
  - name: "1SL"
  coords:
    lat: 55.8038
    lon: 37.7448
- name: "Преображенская площадь"
  dates:
  - since: 1965-12-31
  lines:
  - name: "1SL"
  coords:
    lat: 55.7963
    lon: 37.7151
- name: "Сокольники"
  dates:
  - since: 1935-05-15
  lines:
  - name: "1SL"
  coords:
    lat: 55.7888
    lon: 37.6802
- name: "Красносельская"
  dates:
  - since: 1935-05-15
  lines:
  - name: "1SL"
  coords:
    lat: 55.7801
    lon: 37.6673
- name: "Комсомольская"
  dates:
  - since: 1935-05-15
  lines:
  - name: "1SL"
  coords:
    lat: 55.7753
    lon: 37.6562
- name: "Красные Ворота"
  dates:
  - since: 1935-05-15
  lines:
  - name: "1SL"
  coords:
    lat: 55.769
    lon: 37.6487
- name: "Чистые пруды"
  dates:
  - since: 1935-05-15
  lines:
  - name: "1SL"
  coords:
    lat: 55.7657
    lon: 37.6388
- name: "Лубянка"
  dates:
  - since: 1935-05-15
  lines:
  - name: "1SL"
  coords:
    lat: 55.7597
    lon: 37.6272
- name: "Охотный Ряд"
  dates:
  - since: 1935-05-15
  lines:
  - name: "1SL"
  coords:
    lat: 55.7577
    lon: 37.6166
- name: "Библиотека имени Ленина"
  dates:
  - since: 1935-05-15
  lines:
  - name: "1SL"
  coords:
    lat: 55.7512
    lon: 37.61
- name: "Кропоткинская"
  dates:
  - since: 1935-05-15
  lines:
  - name: "1SL"
  coords:
    lat: 55.7453
    lon: 37.6037
- name: "Парк культуры"
  dates:
  - since: 1935-05-15
  lines:
  - name: "1SL"
  coords:
    lat: 55.7356
    lon: 37.5943
- name: "Фрунзенская"
  dates:
  - since: 1957-05-01
  lines:
  - name: "1SL"
  coords:
    lat: 55.7267
    lon: 37.5786
- name: "Спортивная"
  dates:
  - since: 1957-05-01
  lines:
  - name: "1SL"
  coords:
    lat: 55.7233
    lon: 37.5639
- name: "Воробьёвы горы"
  dates:
  - since: 1959-01-12
    to: 1983-10-25
  - since: 2002-12-14
  lines:
  - name: "1SL"
  coords:
    lat: 55.7103
    lon: 37.5592
- name: "Университет"
  dates:
  - since: 1959-01-12
  lines:
  - name: "1SL"
  coords:
    lat: 55.6926
    lon: 37.5333
- name: "Проспект Вернадского"
  dates:
  - since: 1963-12-30
  lines:
  - name: "1SL"
  coords:
    lat: 55.6771
    lon: 37.506
- name: "Юго-Западная"
  dates:
  - since: 1963-12-30
  lines:
  - name: "1SL"
  coords:
    lat: 55.6637
    lon: 37.4833
- name: "Тропарёво"
  dates:
  - since: 2014-12-08
  lines:
  - name: "1SL"
  coords:
    lat: 55.6459
    lon: 37.4725
- name: "Румянцево"
  dates:
  - since: 2016-01-18
  lines:
  - name: "1SL"
  coords:
    lat: 55.633
    lon: 37.4419
- name: "Саларьево"
  dates:
  - since: 2016-02-15
  lines:
  - name: "1SL"
  coords:
    lat: 55.6219
    lon: 37.4242
- name: "Ховрино"
  dates:
  - since: 2017-12-31
  lines:
  - name: "2ZL"
  coords:
    lat: 55.878764
    lon: 37.481493
- name: "Беломорская"
  dates:
  - since: 2018-12-20
  lines:
  - name: "2ZL"
  coords:
    lat: 55.8658
    lon: 37.4764
- name: "Речной вокзал"
  dates:
  - since: 1964-12-31
  lines:
  - name: "2ZL"
  coords:
    lat: 55.8549
    lon: 37.4761
- name: "Водный стадион"
  dates:
  - since: 1964-12-31
  lines:
  - name: "2ZL"
  coords:
    lat: 55.8398
    lon: 37.4867
- name: "Войковская"
  dates:
  - since: 1964-12-31
  lines:
  - name: "2ZL"
  coords:
    lat: 55.819
    lon: 37.498
- name: "Сокол"
  dates:
  - since: 1938-09-11
  lines:
  - name: "2ZL"
  coords:
    lat: 55.8051
    lon: 37.5153
- name: "Аэропорт"
  dates:
  - since: 1938-09-11
  lines:
  - name: "2ZL"
  coords:
    lat: 55.8003
    lon: 37.5329
- name: "Динамо"
  dates:
  - since: 1938-09-11
  lines:
  - name: "2ZL"
  coords:
    lat: 55.7897
    lon: 37.558
- name: "Белорусская"
  dates:
  - since: 1938-09-11
  lines:
  - name: "2ZL"
  coords:
    lat: 55.7767
    lon: 37.5835
- name: "Маяковская"
  dates:
  - since: 1938-09-11
  lines:
  - name: "2ZL"
  coords:
    lat: 55.7701
    lon: 37.5958
- name: "Тверская"
  dates:
  - since: 1979-07-20
  lines:
  - name: "2ZL"
  coords:
    lat: 55.7647
    lon: 37.6065
- name: "Театральная"
  dates:
  - since: 1938-09-11
  lines:
  - name: "2ZL"
  coords:
    lat: 55.7578
    lon: 37.619
- name: "Новокузнецкая"
  dates:
  - since: 1943-11-20
  lines:
  - name: "2ZL"
  coords:
    lat: 55.7415
    lon: 37.6295
- name: "Павелецкая"
  dates:
  - since: 1943-11-20
  lines:
  - name: "2ZL"
  coords:
    lat: 55.7305
    lon: 37.6377
- name: "Автозаводская"
  dates:
  - since: 1943-01-01
  lines:
  - name: "2ZL"
  coords:
    lat: 55.7074
    lon: 37.6576
- name: "Технопарк"
  dates:
  - since: 2015-12-28
  lines:
  - name: "2ZL"
  coords:
    lat: 55.695
    lon: 37.6641
- name: "Коломенская"
  dates:
  - since: 1969-08-11
  lines:
  - name: "2ZL"
  coords:
    lat: 55.6785
    lon: 37.6638
- name: "Каширская"
  dates:
  - since: 1969-08-11
  lines:
  - name: "2ZL"
  coords:
    lat: 55.6551
    lon: 37.6487
- name: "Кантемировская"
  dates:
  - since: 1984-12-30
  lines:
  - name: "2ZL"
  coords:
    lat: 55.6358
    lon: 37.6564
- name: "Царицыно"
  dates:
  - since: 1984-12-30
  lines:
  - name: "2ZL"
  coords:
    lat: 55.6214
    lon: 37.6694
- name: "Орехово"
  dates:
  - since: 1984-12-30
  lines:
  - name: "2ZL"
  coords:
    lat: 55.6132
    lon: 37.6949
- name: "Домодедовская"
  dates:
  - since: 1985-09-07
  lines:
  - name: "2ZL"
  coords:
    lat: 55.6108
    lon: 37.7186
- name: "Красногвардейская"
  dates:
  - since: 1985-09-07
  lines:
  - name: "2ZL"
  coords:
    lat: 55.6137
    lon: 37.7444
- name: "Алма-Атинская"
  dates:
  - since: 2012-12-24
  lines:
  - name: "2ZL"
  coords:
    lat: 55.6326
    lon: 37.766
- name: "Пятницкое шоссе"
  dates:
  - since: 2012-12-28
  lines:
  - name: "3APL"
  coords:
    lat: 55.8563
    lon: 37.3544
- name: "Митино"
  dates:
  - since: 2009-12-26
  lines:
  - name: "3APL"
  coords:
    lat: 55.8457
    lon: 37.3622
- name: "Волоколамская"
  dates:
  - since: 2009-12-26
  lines:
  - name: "3APL"
  coords:
    lat: 55.8354
    lon: 37.3822
- name: "Мякинино"
  dates:
  - since: 2009-12-26
  lines:
  - name: "3APL"
  coords:
    lat: 55.8252
    lon: 37.3852
- name: "Строгино"
  dates:
  - since: 2008-01-07
  lines:
  - name: "3APL"
  coords:
    lat: 55.8038
    lon: 37.4031
- name: "Крылатское"
  dates:
  - since: 1989-12-31
  lines:
  - name: 4FL
    since: 1989-12-31
    to: 2008-01-07
  - name: "3APL"
    since: 2008-01-07
  coords:
    lat: 55.7567
    lon: 37.4081
- name: "Молодёжная"
  dates:
  - since: 1965-07-05
  lines:
  - name: 4FL
    since: 1965-07-05
    to: 2008-01-07
  - name: "3APL"
    since: 2008-01-07
  coords:
    lat: 55.7408
    lon: 37.4168
- name: "Кунцевская"
  dates:
  - since: 2008-01-07
  lines:
  - name: "3APL"
  coords:
    lat: 55.7307
    lon: 37.4459
- name: "Славянский бульвар"
  dates:
  - since: 2008-09-07
  lines:
  - name: "3APL"
  coords:
    lat: 55.7296
    lon: 37.4706
- name: "Парк Победы"
  dates:
  - since: 2003-05-06
  lines:
  - name: "3APL"
  coords:
    lat: 55.7362
    lon: 37.5182
- name: "Киевская"
  dates:
  - since: 1953-04-05
  lines:
  - name: "3APL"
  coords:
    lat: 55.7442
    lon: 37.5645
- name: "Смоленская"
  dates:
  - since: 1953-04-05
  lines:
  - name: "3APL"
  coords:
    lat: 55.7474
    lon: 37.5823
- name: "Арбатская"
  dates:
  - since: 1953-04-05
  lines:
  - name: "3APL"
  coords:
    lat: 55.7522
    lon: 37.6061
- name: "Площадь Революции"
  dates:
  - since: 1938-03-13
  lines:
  - name: "3APL"
  coords:
    lat: 55.7566
    lon: 37.6216
- name: "Курская"
  dates:
  - since: 1938-03-13
  lines:
  - name: "3APL"
  coords:
    lat: 55.7576
    lon: 37.6577
- name: "Бауманская"
  dates:
  - since: 1944-01-18
  lines:
  - name: "3APL"
  coords:
    lat: 55.773
    lon: 37.6806
- name: "Электрозаводская"
  dates:
  - since: 1944-05-15
  lines:
  - name: "3APL"
  coords:
    lat: 55.7817
    lon: 37.7037
- name: "Семёновская"
  dates:
  - since: 1944-01-18
  lines:
  - name: "3APL"
  coords:
    lat: 55.7833
    lon: 37.7208
- name: "Партизанская"
  dates:
  - since: 1944-01-18
  lines:
  - name: "3APL"
  coords:
    lat: 55.7886
    lon: 37.7506
- name: "Измайловская"
  dates:
  - since: 1961-10-21
  lines:
  - name: "3APL"
  coords:
    lat: 55.7878
    lon: 37.7814
- name: "Первомайская"
  dates:
  - since: 1961-10-21
  lines:
  - name: "3APL"
  coords:
    lat: 55.7948
    lon: 37.7993
- name: "Щёлковская"
  dates:
  - since: 1963-07-22
  lines:
  - name: "3APL"
  coords:
    lat: 55.8094
    lon: 37.7986
- name: "Кунцевская"
  dates:
  - since: 1965-08-31
  lines:
  - name: "4FL"
  coords:
    lat: 55.7307
    lon: 37.4459
- name: "Пионерская"
  dates:
  - since: 1961-10-13
  lines:
  - name: "4FL"
  coords:
    lat: 55.736
    lon: 37.4671
- name: "Филёвский парк"
  dates:
  - since: 1961-10-13
  lines:
  - name: "4FL"
  coords:
    lat: 55.7396
    lon: 37.4833
- name: "Багратионовская"
  dates:
  - since: 1961-10-13
  lines:
  - name: "4FL"
  coords:
    lat: 55.7438
    lon: 37.4977
- name: "Фили"
  dates:
  - since: 1959-11-07
  lines:
  - name: "4FL"
  coords:
    lat: 55.746
    lon: 37.515
- name: "Кутузовская"
  dates:
  - since: 1958-11-07
  lines:
  - name: "4FL"
  coords:
    lat: 55.7399
    lon: 37.5344
- name: "Студенческая"
  dates:
  - since: 1958-11-07
  lines:
  - name: "4FL"
  coords:
    lat: 55.7388
    lon: 37.5483
- name: "Международная"
  dates:
  - since: 2006-08-30
  lines:
  - name: "4FL"
  coords:
    lat: 55.7483
    lon: 37.5339
- name: "Выставочная"
  dates:
  - since: 2005-09-10
  lines:
  - name: "4FL"
  coords:
    lat: 55.7502
    lon: 37.5408
- name: "Киевская"
  dates:
  - since: 1937-03-20
    to: 1953-04-05
  - since: 1958-11-07
  lines:
  - name: 1SL
    since: 1937-03-20
    to: 1938-03-13
  - name: 3APL
    since: 1938-03-13
    to: 1953-04-05
  - name: "4FL"
    since: 1958-11-07
  coords:
    lat: 55.7436
    lon: 37.5655
- name: "Смоленская"
  dates:
  - since: 1935-05-15
    to: 1953-04-05
  - since: 1958-11-07
  lines:
  - name: 1SL
    since: 1935-05-01
    to: 1938-03-13
  - name: 3APL
    since: 1938-03-13
    to: 1953-04-05
  - name: "4FL"
    since: 1958-11-07
  coords:
    lat: 55.7488
    lon: 37.5825
- name: "Арбатская"
  dates:
  - since: 1935-05-15
    to: 1953-04-05
  - since: 1958-11-07
  lines:
  - name: 1SL
    since: 1935-05-01
    to: 1938-03-13
  - name: 3APL
    since: 1938-03-13
    to: 1953-04-05
  - name: "4FL"
    since: 1958-11-07
  coords:
    lat: 55.7518
    lon: 37.6007
- name: "Александровский сад"
  dates:
  - since: 1935-05-15
    to: 1953-04-05
  - since: 1958-11-07
  lines:
  - name: 1SL
    since: 1935-05-01
    to: 1938-03-13
  - name: 3APL
    since: 1938-03-13
    to: 1953-04-05
  - name: "4FL"
    since: 1958-11-07
  coords:
    lat: 55.7525
    lon: 37.6085
- name: "Парк культуры"
  dates:
  - since: 1950-01-01
  lines:
  - name: "5KL"
  coords:
    lat: 55.7357
    lon: 37.5915
- name: "Октябрьская"
  dates:
  - since: 1950-01-01
  lines:
  - name: "5KL"
  coords:
    lat: 55.7297
    lon: 37.6091
- name: "Добрынинская"
  dates:
  - since: 1950-01-01
  lines:
  - name: "5KL"
  coords:
    lat: 55.7291
    lon: 37.6243
- name: "Павелецкая"
  dates:
  - since: 1950-01-01
  lines:
  - name: "5KL"
  coords:
    lat: 55.7318
    lon: 37.6379
- name: "Таганская"
  dates:
  - since: 1950-01-01
  lines:
  - name: "5KL"
  coords:
    lat: 55.7418
    lon: 37.6517
- name: "Курская"
  dates:
  - since: 1950-01-01
  lines:
  - name: "5KL"
  coords:
    lat: 55.757
    lon: 37.6595
- name: "Комсомольская"
  dates:
  - since: 1952-01-30
  lines:
  - name: "5KL"
  coords:
    lat: 55.7748
    lon: 37.6549
- name: "Проспект Мира"
  dates:
  - since: 1952-01-30
  lines:
  - name: "5KL"
  coords:
    lat: 55.7798
    lon: 37.6318
- name: "Новослободская"
  dates:
  - since: 1952-01-30
  lines:
  - name: "5KL"
  coords:
    lat: 55.7799
    lon: 37.6028
- name: "Белорусская"
  dates:
  - since: 1952-01-30
  lines:
  - name: "5KL"
  coords:
    lat: 55.7764
    lon: 37.5844
- name: "Краснопресненская"
  dates:
  - since: 1954-03-14
  lines:
  - name: "5KL"
  coords:
    lat: 55.7613
    lon: 37.5774
- name: "Киевская"
  dates:
  - since: 1954-03-14
  lines:
  - name: "5KL"
  coords:
    lat: 55.7446
    lon: 37.5644
- name: "Медведково"
  dates:
  - since: 1978-09-30
  lines:
  - name: "6KRL"
  coords:
    lat: 55.8872
    lon: 37.6613
- name: "Бабушкинская"
  dates:
  - since: 1978-09-30
  lines:
  - name: "6KRL"
  coords:
    lat: 55.8694
    lon: 37.6644
- name: "Свиблово"
  dates:
  - since: 1978-09-30
  lines:
  - name: "6KRL"
  coords:
    lat: 55.8552
    lon: 37.6527
- name: "Ботанический сад"
  dates:
  - since: 1978-09-30
  lines:
  - name: "6KRL"
  coords:
    lat: 55.8449
    lon: 37.6383
- name: "ВДНХ"
  dates:
  - since: 1958-05-01
  lines:
  - name: "6KRL"
  coords:
    lat: 55.8211
    lon: 37.6411
- name: "Алексеевская"
  dates:
  - since: 1958-05-01
  lines:
  - name: "6KRL"
  coords:
    lat: 55.8088
    lon: 37.639
- name: "Рижская"
  dates:
  - since: 1958-05-01
  lines:
  - name: "6KRL"
  coords:
    lat: 55.7936
    lon: 37.6362
- name: "Проспект Мира"
  dates:
  - since: 1958-05-01
  lines:
  - name: "6KRL"
  coords:
    lat: 55.7812
    lon: 37.6318
- name: "Сухаревская"
  dates:
  - since: 1972-01-05
  lines:
  - name: "6KRL"
  coords:
    lat: 55.7733
    lon: 37.6319
- name: "Тургеневская"
  dates:
  - since: 1972-01-05
  lines:
  - name: "6KRL"
  coords:
    lat: 55.7661
    lon: 37.6374
- name: "Китай-город"
  dates:
  - since: 1971-01-03
  lines:
  - name: "6KRL"
  coords:
    lat: 55.7553
    lon: 37.6333
- name: "Третьяковская"
  dates:
  - since: 1971-01-03
  lines:
  - name: "6KRL"
  coords:
    lat: 55.7412
    lon: 37.6274
- name: "Октябрьская"
  dates:
  - since: 1962-10-13
  lines:
  - name: "6KRL"
  coords:
    lat: 55.7306
    lon: 37.6112
- name: "Шаболовская"
  dates:
  - since: 1980-11-06
  lines:
  - name: "6KRL"
  coords:
    lat: 55.7198
    lon: 37.6083
- name: "Ленинский проспект"
  dates:
  - since: 1962-10-13
  lines:
  - name: "6KRL"
  coords:
    lat: 55.7077
    lon: 37.5861
- name: "Академическая"
  dates:
  - since: 1962-10-13
  lines:
  - name: "6KRL"
  coords:
    lat: 55.6877
    lon: 37.5733
- name: "Профсоюзная"
  dates:
  - since: 1962-10-13
  lines:
  - name: "6KRL"
  coords:
    lat: 55.678
    lon: 37.5627
- name: "Новые Черёмушки"
  dates:
  - since: 1962-10-13
  lines:
  - name: "6KRL"
  coords:
    lat: 55.6702
    lon: 37.5544
- name: "Калужская"
  dates:
  - since: 1974-08-12
  lines:
  - name: "6KRL"
  coords:
    lat: 55.6571
    lon: 37.5405
- name: "Беляево"
  dates:
  - since: 1974-08-12
  lines:
  - name: "6KRL"
  coords:
    lat: 55.6428
    lon: 37.5257
- name: "Коньково"
  dates:
  - since: 1987-11-06
  lines:
  - name: "6KRL"
  coords:
    lat: 55.6333
    lon: 37.5188
- name: "Тёплый Стан"
  dates:
  - since: 1987-11-06
  lines:
  - name: "6KRL"
  coords:
    lat: 55.6191
    lon: 37.5082
- name: "Ясенево"
  dates:
  - since: 1990-01-17
  lines:
  - name: "6KRL"
  coords:
    lat: 55.6063
    lon: 37.5333
- name: "Новоясеневская"
  dates:
  - since: 1990-01-17
  lines:
  - name: "6KRL"
  coords:
    lat: 55.601
    lon: 37.5541
- name: "Планерная"
  dates:
  - since: 1975-12-30
  lines:
  - name: "7TKL"
  coords:
    lat: 55.8607
    lon: 37.4364
- name: "Сходненская"
  dates:
  - since: 1975-12-30
  lines:
  - name: "7TKL"
  coords:
    lat: 55.8505
    lon: 37.4396
- name: "Тушинская"
  dates:
  - since: 1975-12-30
  lines:
  - name: "7TKL"
  coords:
    lat: 55.8267
    lon: 37.4368
- name: "Спартак"
  dates:
  - since: 2014-08-27
  lines:
  - name: "7TKL"
  coords:
    lat: 55.8182
    lon: 37.4353
- name: "Щукинская"
  dates:
  - since: 1975-12-30
  lines:
  - name: "7TKL"
  coords:
    lat: 55.8086
    lon: 37.4641
- name: "Октябрьское Поле"
  dates:
  - since: 1972-12-30
  lines:
  - name: "7TKL"
  coords:
    lat: 55.7935
    lon: 37.4935
- name: "Полежаевская"
  dates:
  - since: 1972-12-30
  lines:
  - name: "7TKL"
  coords:
    lat: 55.7775
    lon: 37.5192
- name: "Беговая"
  dates:
  - since: 1972-12-30
  lines:
  - name: "7TKL"
  coords:
    lat: 55.7738
    lon: 37.5468
- name: "Улица 1905 года"
  dates:
  - since: 1972-12-30
  lines:
  - name: "7TKL"
  coords:
    lat: 55.765
    lon: 37.5613
- name: "Баррикадная"
  dates:
  - since: 1972-12-30
  lines:
  - name: "7TKL"
  coords:
    lat: 55.7612
    lon: 37.5795
- name: "Пушкинская"
  dates:
  - since: 1975-12-17
  lines:
  - name: "7TKL"
  coords:
    lat: 55.765
    lon: 37.6079
- name: "Кузнецкий Мост"
  dates:
  - since: 1975-12-17
  lines:
  - name: "7TKL"
  coords:
    lat: 55.7606
    lon: 37.6259
- name: "Китай-город"
  dates:
  - since: 1971-01-03
  lines:
  - name: "7TKL"
  coords:
    lat: 55.7553
    lon: 37.6333
- name: "Таганская"
  dates:
  - since: 1966-12-31
  lines:
  - name: "7TKL"
  coords:
    lat: 55.7402
    lon: 37.6522
- name: "Пролетарская"
  dates:
  - since: 1966-12-31
  lines:
  - name: "7TKL"
  coords:
    lat: 55.7319
    lon: 37.6659
- name: "Волгоградский проспект"
  dates:
  - since: 1966-12-31
  lines:
  - name: "7TKL"
  coords:
    lat: 55.7253
    lon: 37.6869
- name: "Текстильщики"
  dates:
  - since: 1966-12-31
  lines:
  - name: "7TKL"
  coords:
    lat: 55.7088
    lon: 37.7316
- name: "Кузьминки"
  dates:
  - since: 1966-12-31
  lines:
  - name: "7TKL"
  coords:
    lat: 55.7056
    lon: 37.7656
- name: "Рязанский проспект"
  dates:
  - since: 1966-12-31
  lines:
  - name: "7TKL"
  coords:
    lat: 55.717
    lon: 37.7933
- name: "Выхино"
  dates:
  - since: 1966-12-31
  lines:
  - name: "7TKL"
  coords:
    lat: 55.7156
    lon: 37.8181
- name: "Лермонтовский проспект"
  dates:
  - since: 2013-11-09
  lines:
  - name: "7TKL"
  coords:
    lat: 55.7013
    lon: 37.8525
- name: "Жулебино"
  dates:
  - since: 2013-11-09
  lines:
  - name: "7TKL"
  coords:
    lat: 55.6855
    lon: 37.8563
- name: "Котельники"
  dates:
  - since: 2015-09-21
  lines:
  - name: "7TKL"
  coords:
    lat: 55.6743
    lon: 37.8582
- name: "Рассказовка"
  dates:
  - since: 2018-08-30
  lines:
  - name: "8SL"
  coords:
    lat: 55.6331
    lon: 37.3328
- name: "Новопеределкино"
  dates:
  - since: 2018-08-30
  lines:
  - name: "8SL"
  coords:
    lat: 55.6392
    lon: 37.3544
- name: "Боровское шоссе"
  dates:
  - since: 2018-08-30
  lines:
  - name: "8SL"
  coords:
    lat: 55.6477
    lon: 37.3702
- name: "Солнцево"
  dates:
  - since: 2018-08-30
  lines:
  - name: "8SL"
  coords:
    lat: 55.6497
    lon: 37.3911
- name: "Говорово"
  dates:
  - since: 2018-08-30
  lines:
  - name: "8SL"
  coords:
    lat: 55.6595
    lon: 37.4174
- name: "Озёрная"
  dates:
  - since: 2018-08-30
  lines:
  - name: "8SL"
  coords:
    lat: 55.6704
    lon: 37.4495
- name: "Мичуринский проспект"
  dates:
  - since: 2018-08-30
  lines:
  - name: "8SL"
  coords:
    lat: 55.6894
    lon: 37.4850
- name: "Раменки"
  dates:
  - since: 2017-03-16
  lines:
  - name: "8SL"
  coords:
    lat: 55.6961
    lon: 37.5053
- name: "Ломоносовский проспект"
  dates:
  - since: 2017-03-16
  lines:
  - name: "8SL"
  coords:
    lat: 55.7055
    lon: 37.5225
- name: "Минская"
  dates:
  - since: 2017-03-16
  lines:
  - name: "8SL"
  coords:
    lat: 55.7232
    lon: 37.5038
- name: "Парк Победы"
  dates:
  - since: 2014-01-31
  lines:
  - name: "8SL"
  coords:
    lat: 55.7362
    lon: 37.5182
- name: "Деловой центр"
  dates:
  - since: 2014-01-31
  lines:
  - name: "8SL"
  coords:
    lat: 55.7491
    lon: 37.5395
- name: "Третьяковская"
  dates:
  - since: 1986-01-25
  lines:
  - name: "8KL"
  coords:
    lat: 55.7412
    lon: 37.6274
- name: "Марксистская"
  dates:
  - since: 1979-12-30
  lines:
  - name: "8KL"
  coords:
    lat: 55.7411
    lon: 37.6543
- name: "Площадь Ильича"
  dates:
  - since: 1979-12-30
  lines:
  - name: "8KL"
  coords:
    lat: 55.7472
    lon: 37.6824
- name: "Авиамоторная"
  dates:
  - since: 1979-12-30
  lines:
  - name: "8KL"
  coords:
    lat: 55.7524
    lon: 37.7191
- name: "Шоссе Энтузиастов"
  dates:
  - since: 1979-12-30
  lines:
  - name: "8KL"
  coords:
    lat: 55.7576
    lon: 37.75
- name: "Перово"
  dates:
  - since: 1979-12-30
  lines:
  - name: "8KL"
  coords:
    lat: 55.7511
    lon: 37.7866
- name: "Новогиреево"
  dates:
  - since: 1979-12-30
  lines:
  - name: "8KL"
  coords:
    lat: 55.7517
    lon: 37.8166
- name: "Новокосино"
  dates:
  - since: 2012-08-30
  lines:
  - name: "8KL"
  coords:
    lat: 55.7451
    lon: 37.8638
- name: "Алтуфьево"
  dates:
  - since: 1994-07-15
  lines:
  - name: "9STL"
  coords:
    lat: 55.898
    lon: 37.587
- name: "Бибирево"
  dates:
  - since: 1992-12-31
  lines:
  - name: "9STL"
  coords:
    lat: 55.8838
    lon: 37.6034
- name: "Отрадное"
  dates:
  - since: 1991-03-01
  lines:
  - name: "9STL"
  coords:
    lat: 55.8633
    lon: 37.6047
- name: "Владыкино"
  dates:
  - since: 1991-03-01
  lines:
  - name: "9STL"
  coords:
    lat: 55.8473
    lon: 37.5899
- name: "Петровско-Разумовская"
  dates:
  - since: 1991-03-01
  lines:
  - name: "9STL"
  coords:
    lat: 55.8351
    lon: 37.5745
- name: "Тимирязевская"
  dates:
  - since: 1991-03-01
  lines:
  - name: "9STL"
  coords:
    lat: 55.8176
    lon: 37.5765
- name: "Дмитровская"
  dates:
  - since: 1991-03-01
  lines:
  - name: "9STL"
  coords:
    lat: 55.8069
    lon: 37.5817
- name: "Савёловская"
  dates:
  - since: 1988-12-31
  lines:
  - name: "9STL"
  coords:
    lat: 55.7927
    lon: 37.5885
- name: "Менделеевская"
  dates:
  - since: 1988-12-31
  lines:
  - name: "9STL"
  coords:
    lat: 55.781
    lon: 37.6011
- name: "Цветной бульвар"
  dates:
  - since: 1988-12-31
  lines:
  - name: "9STL"
  coords:
    lat: 55.7708
    lon: 37.6187
- name: "Чеховская"
  dates:
  - since: 1987-12-31
  lines:
  - name: "9STL"
  coords:
    lat: 55.7644
    lon: 37.6097
- name: "Боровицкая"
  dates:
  - since: 1986-01-23
  lines:
  - name: "9STL"
  coords:
    lat: 55.7511
    lon: 37.6072
- name: "Полянка"
  dates:
  - since: 1986-01-23
  lines:
  - name: "9STL"
  coords:
    lat: 55.7379
    lon: 37.618
- name: "Серпуховская"
  dates:
  - since: 1983-11-08
  lines:
  - name: "9STL"
  coords:
    lat: 55.728
    lon: 37.6246
- name: "Тульская"
  dates:
  - since: 1983-11-08
  lines:
  - name: "9STL"
  coords:
    lat: 55.7087
    lon: 37.6229
- name: "Нагатинская"
  dates:
  - since: 1983-11-08
  lines:
  - name: "9STL"
  coords:
    lat: 55.683
    lon: 37.6224
- name: "Нагорная"
  dates:
  - since: 1983-11-08
  lines:
  - name: "9STL"
  coords:
    lat: 55.6724
    lon: 37.6104
- name: "Нахимовский проспект"
  dates:
  - since: 1983-11-08
  lines:
  - name: "9STL"
  coords:
    lat: 55.6627
    lon: 37.6055
- name: "Севастопольская"
  dates:
  - since: 1983-11-08
  lines:
  - name: "9STL"
  coords:
    lat: 55.6524
    lon: 37.5984
- name: "Чертановская"
  dates:
  - since: 1983-11-08
  lines:
  - name: "9STL"
  coords:
    lat: 55.6405
    lon: 37.6067
- name: "Южная"
  dates:
  - since: 1983-11-08
  lines:
  - name: "9STL"
  coords:
    lat: 55.6224
    lon: 37.609
- name: "Пражская"
  dates:
  - since: 1985-11-06
  lines:
  - name: "9STL"
  coords:
    lat: 55.6124
    lon: 37.6044
- name: "Улица Академика Янгеля"
  dates:
  - since: 2000-08-31
  lines:
  - name: "9STL"
  coords:
    lat: 55.5949
    lon: 37.6004
- name: "Аннино"
  dates:
  - since: 2001-12-12
  lines:
  - name: "9STL"
  coords:
    lat: 55.5828
    lon: 37.5966
- name: "Бульвар Дмитрия Донского"
  dates:
  - since: 2002-12-26
  lines:
  - name: "9STL"
  coords:
    lat: 55.5693
    lon: 37.5769
- name: "Селигерская"
  dates:
  - since: 2018-03-22
  lines:
  - name: "10LDL"
  coords:
    lat: 55.8665
    lon: 37.5471
- name: "Верхние Лихоборы"
  dates:
  - since: 2018-03-22
  lines:
  - name: "10LDL"
  coords:
    lat: 55.856
    lon: 37.561
- name: "Окружная"
  dates:
  - since: 2018-03-22
  lines:
  - name: "10LDL"
  coords:
    lat: 55.844
    lon: 37.576
- name: "Петровско-Разумовская"
  dates:
  - since: 2016-09-16
  lines:
  - name: "10LDL"
  coords:
    lat: 55.8351
    lon: 37.5745
- name: "Фонвизинская"
  dates:
  - since: 2016-09-16
  lines:
  - name: "10LDL"
  coords:
    lat: 55.8228
    lon: 37.5881
- name: "Бутырская"
  dates:
  - since: 2016-09-16
  lines:
  - name: "10LDL"
  coords:
    lat: 55.8133
    lon: 37.6028
- name: "Марьина роща"
  dates:
  - since: 2010-06-19
  lines:
  - name: "10LDL"
  coords:
    lat: 55.7954
    lon: 37.6162
- name: "Достоевская"
  dates:
  - since: 2010-06-19
  lines:
  - name: "10LDL"
  coords:
    lat: 55.7816
    lon: 37.6151
- name: "Трубная"
  dates:
  - since: 2007-08-30
  lines:
  - name: "10LDL"
  coords:
    lat: 55.7688
    lon: 37.62
- name: "Сретенский бульвар"
  dates:
  - since: 2007-12-29
  lines:
  - name: "10LDL"
  coords:
    lat: 55.7668
    lon: 37.6392
- name: "Чкаловская"
  dates:
  - since: 1995-12-28
  lines:
  - name: "10LDL"
  coords:
    lat: 55.7565
    lon: 37.6573
- name: "Римская"
  dates:
  - since: 1995-12-28
  lines:
  - name: "10LDL"
  coords:
    lat: 55.7463
    lon: 37.6819
- name: "Крестьянская застава"
  dates:
  - since: 1995-12-28
  lines:
  - name: "10LDL"
  coords:
    lat: 55.7331
    lon: 37.6673
- name: "Дубровка"
  dates:
  - since: 1999-12-11
  lines:
  - name: "10LDL"
  coords:
    lat: 55.7186
    lon: 37.676
- name: "Кожуховская"
  dates:
  - since: 1995-12-28
  lines:
  - name: "10LDL"
  coords:
    lat: 55.7074
    lon: 37.6851
- name: "Печатники"
  dates:
  - since: 1995-12-28
  lines:
  - name: "10LDL"
  coords:
    lat: 55.6934
    lon: 37.727
- name: "Волжская"
  dates:
  - since: 1995-12-28
  lines:
  - name: "10LDL"
  coords:
    lat: 55.6909
    lon: 37.753
- name: "Люблино"
  dates:
  - since: 1996-12-25
  lines:
  - name: "10LDL"
  coords:
    lat: 55.6758
    lon: 37.7618
- name: "Братиславская"
  dates:
  - since: 1996-12-25
  lines:
  - name: "10LDL"
  coords:
    lat: 55.6597
    lon: 37.7505
- name: "Марьино"
  dates:
  - since: 1996-12-25
  lines:
  - name: "10LDL"
  coords:
    lat: 55.65
    lon: 37.7431
- name: "Борисово"
  dates:
  - since: 2011-12-02
  lines:
  - name: "10LDL"
  coords:
    lat: 55.6334
    lon: 37.7436
- name: "Шипиловская"
  dates:
  - since: 2011-12-02
  lines:
  - name: "10LDL"
  coords:
    lat: 55.6211
    lon: 37.7437
- name: "Зябликово"
  dates:
  - since: 2011-12-02
  lines:
  - name: "10LDL"
  coords:
    lat: 55.6124
    lon: 37.7453
- name: "Деловой центр"
  dates:
  - since: 2018-02-26
  lines:
  - name: "11BKL"
  coords:
    lat: 55.7489
    lon: 37.5391
- name: "Шелепиха"
  dates:
  - since: 2018-02-26
  lines:
  - name: "11BKL"
  coords:
    lat: 55.7574
    lon: 37.5240
- name: "Хорошёвская"
  dates:
  - since: 2018-02-26
  lines:
  - name: "11BKL"
  coords:
    lat: 55.7766
    lon: 37.5181
- name: "ЦСКА"
  dates:
  - since: 2018-02-26
  lines:
  - name: "11BKL"
  coords:
    lat: 55.7866
    lon: 37.5333
- name: "Петровский парк"
  dates:
  - since: 2018-02-26
  lines:
  - name: "11BKL"
  coords:
    lat: 55.7925
    lon: 37.5578
- name: "Савёловская"
  dates:
  - since: 2018-12-30
  lines:
  - name: "11BKL"
  coords:
    lat: 55.7934
    lon: 37.587
- name: "Каширская"
  dates:
  - since: 1995-11-02
  lines:
  - name: "11KL"
  coords:
    lat: 55.6551
    lon: 37.6487
- name: "Варшавская"
  dates:
  - since: 1969-08-11
  lines:
  - name: 2ZL
    since: 1969-08-11
    to: 1995-11-02
  - name: "11KL"
    since: 1995-11-02
  coords:
    lat: 55.6533
    lon: 37.6194
- name: "Каховская"
  dates:
  - since: 1969-08-11
  lines:
  - name: 2ZL
    since: 1969-08-11
    to: 1995-11-02
  - name: "11KL"
    since: 1995-11-02
  coords:
    lat: 55.653
    lon: 37.5983
- name: "Битцевский парк"
  dates:
  - since: 2014-02-27
  lines:
  - name: "12BL"
  coords:
    lat: 55.6004
    lon: 37.5562
- name: "Лесопарковая"
  dates:
  - since: 2014-02-27
  lines:
  - name: "12BL"
  coords:
    lat: 55.5821
    lon: 37.5769
- name: "Улица Старокачаловская"
  dates:
  - since: 2003-12-27
  lines:
  - name: "12BL"
  coords:
    lat: 55.569
    lon: 37.5767
- name: "Улица Скобелевская"
  dates:
  - since: 2003-12-27
  lines:
  - name: "12BL"
  coords:
    lat: 55.5481
    lon: 37.5546
- name: "Бульвар Адмирала Ушакова"
  dates:
  - since: 2003-12-27
  lines:
  - name: "12BL"
  coords:
    lat: 55.5455
    lon: 37.543
- name: "Улица Горчакова"
  dates:
  - since: 2003-12-27
  lines:
  - name: "12BL"
  coords:
    lat: 55.5418
    lon: 37.5308
- name: "Бунинская аллея"
  dates:
  - since: 2003-12-27
  lines:
  - name: "12BL"
  coords:
    lat: 55.538
    lon: 37.5158
### Закрыты навсегда
- name: Первомайская
  dates:
    - since: 1954-09-24
      to: 1961-10-21
  lines:
    - name: 3APL
  coords:
    lat: 55.7894
    lon: 37.7744
- name: Калужская
  dates:
    - since: 1964-04-15
      to: 1974-08-12
  lines:
    - name: 6KRL
  coords:
    lat: 55.6583
    lon: 37.5453
