# Сокольническая
- name: Бульвар Рокоссовского
  dates:
    - since: 1990-08-01
  lines:
    - name: 1SL
  coords:
    lat: 55.8148
    lon: 37.7342
- name: Черкизовская
  dates:
    - since: 1990-08-01
  lines:
    - name: 1SL
  coords:
    lat: 55.8038
    lon: 37.7448
- name: Преображенская площадь
  dates:
    - since: 1965-12-31
  lines:
    - name: 1SL
  coords:
    lat: 55.7963
    lon: 37.7151
- name: Сокольники
  dates:
    - since: 1935-05-15
  lines:
    - name: 1SL
  coords:
    lat: 55.7888
    lon: 37.6802
- name: Красносельская
  dates:
    - since: 1935-05-15
  lines:
    - name: 1SL
  coords:
    lat: 55.7801
    lon: 37.6673
- name: Комсомольская
  dates:
    - since: 1935-05-15
  lines:
    - name: 1SL
  coords:
    lat: 55.7753
    lon: 37.6562
- name: Красные ворота
  dates:
    - since: 1935-05-15
  lines:
    - name: 1SL
  coords:
    lat: 55.7690
    lon: 37.6487
- name: Чистые пруды
  dates:
    - since: 1935-05-15
  lines:
    - name: 1SL
  coords:
    lat: 55.7657
    lon: 37.6388
- name: Лубянка
  dates:
    - since: 1935-05-15
  lines:
    - name: 1SL
  coords:
    lat: 55.7597
    lon: 37.6272
- name: Охотный ряд
  dates:
    - since: 1935-05-15
  lines:
    - name: 1SL
  coords:
    lat: 55.7577
    lon: 37.6166
- name: Библиотека имени Ленина
  dates:
    - since: 1935-05-15
  lines:
    - name: 1SL
  coords:
    lat: 55.7512
    lon: 37.6100
- name: Кропоткинская
  dates:
    - since: 1935-05-15
  lines:
    - name: 1SL
  coords:
    lat: 55.7453
    lon: 37.6037
- name: Парк культуры
  dates:
    - since: 1935-05-15
  lines:
    - name: 1SL
  coords:
    lat: 55.7356
    lon: 37.5943
- name: Фрунзенская
  dates:
    - since: 1957-05-01
  lines:
    - name: 1SL
  coords:
    lat: 55.7267
    lon: 37.5786
- name: Спортивная
  dates:
    - since: 1957-05-01
  lines:
    - name: 1SL
  coords:
    lat: 55.7233
    lon: 37.5639
- name: Воробьёвы горы
  dates:
    - since: 1959-01-12
  lines:
    - name: 1SL
  coords:
    lat: 55.7103
    lon: 37.5592
- name: Университет
  dates:
    - since: 1959-01-12
  lines:
    - name: 1SL
  coords:
    lat: 55.6926
    lon: 37.5333
- name: Проспект Вернадского
  dates:
    - since: 1963-12-30
  lines:
    - name: 1SL
  coords:
    lat: 55.6771
    lon: 37.5060
- name: Юго-Западная
  dates:
    - since: 1963-12-30
  lines:
    - name: 1SL
  coords:
    lat: 55.6637
    lon: 37.4833
- name: Тропарёво
  dates:
    - since: 2014-12-08
  lines:
    - name: 1SL
  coords:
    lat: 55.6459
    lon: 37.4725
- name: Румянцево
  dates:
    - since: 2016-01-18
  lines:
    - name: 1SL
  coords:
    lat: 55.6330
    lon: 37.4419
- name: Саларьево
  dates:
    - since: 2016-02-15
  lines:
    - name: 1SL
  coords:
    lat: 55.6219
    lon: 37.4242
# Замоскворецкая
- name: Ховрино
  dates:
    - since: 2017-12-31
  lines:
    - name: 2ZL
  coords:
    lat: 55.8788
    lon: 37.4815
- name: Беломорская
  dates:
    - since: 2019-01-01 # не построена
  lines:
    - name: 2ZL
  coords:
    lat: 55.8658
    lon: 37.4764
- name: Речной вокзал
  dates:
    - since: 1964-12-31
  lines:
    - name: 2ZL
  coords:
    lat: 55.8549
    lon: 37.4761
- name: Водный стадион
  dates:
    - since: 1964-12-31
  lines:
    - name: 2ZL
  coords:
    lat: 55.8398
    lon: 37.4867
- name: Войковская
  dates:
    - since: 1964-12-31
  lines:
    - name: 2ZL
  coords:
    lat: 55.8190
    lon: 37.4980
- name: Сокол
  dates:
    - since: 1938-09-11
  lines:
    - name: 2ZL
  coords:
    lat: 55.8051
    lon: 37.5153
- name: Аэропорт
  dates:
    - since: 1938-09-11
  lines:
    - name: 2ZL
  coords:
    lat: 55.8003
    lon: 37.5329
- name: Динамо
  dates:
    - since: 1938-09-11
  lines:
    - name: 2ZL
  coords:
    lat: 55.7897
    lon: 37.5580
- name: Белорусская
  dates:
    - since: 1938-09-11
  lines:
    - name: 2ZL
  coords:
    lat: 55.7767
    lon: 37.5835
- name: Маяковская
  dates:
    - since: 1938-09-11
  lines:
    - name: 2ZL
  coords:
    lat: 55.7701
    lon: 37.5958
- name: Тверская
  dates:
    - since: 1979-07-20
  lines:
    - name: 2ZL
  coords:
    lat: 55.7647
    lon: 37.6065
- name: Театральная
  dates:
    - since: 1938-09-11
  lines:
    - name: 2ZL
  coords:
    lat: 55.7578
    lon: 37.6190
- name: Новокузнецкая
  dates:
    - since: 1943-11-20
  lines:
    - name: 2ZL
  coords:
    lat: 55.7415
    lon: 37.6295
- name: Павелецкая
  dates:
    - since: 1943-11-20
  lines:
    - name: 2ZL
  coords:
    lat: 55.7305
    lon: 37.6377
- name: Автозаводская
  dates:
    - since: 1943-01-01
  lines:
    - name: 2ZL
  coords:
    lat: 55.7074
    lon: 37.6576
- name: Технопарк
  dates:
    - since: 2015-12-28
  lines:
    - name: 2ZL
  coords:
    lat: 55.6950
    lon: 37.6641
- name: Коломенская
  dates:
    - since: 1969-08-11
  lines:
    - name: 2ZL
  coords:
    lat: 55.6785
    lon: 37.6638
- name: Каширская
  dates:
    - since: 1969-08-11
  lines:
    - name: 2ZL
  coords:
    lat: 55.6551
    lon: 37.6487
- name: Кантемировская
  dates:
    - since: 1984-12-30
  lines:
    - name: 2ZL
  coords:
    lat: 55.6358
    lon: 37.6564
- name: Царицыно
  dates:
    - since: 1984-12-30
  lines:
    - name: 2ZL
  coords:
    lat: 55.6214
    lon: 37.6694
- name: Орехово
  dates:
    - since: 1984-12-30
  lines:
    - name: 2ZL
  coords:
    lat: 55.6132
    lon: 37.6949
- name: Домодедовская
  dates:
    - since: 1985-09-07
  lines:
    - name: 2ZL
  coords:
    lat: 55.6108
    lon: 37.7186
- name: Красногвардейская
  dates:
    - since: 1985-09-07
  lines:
    - name: 2ZL
  coords:
    lat: 55.6137
    lon: 37.7444
- name: Алма-Атинская
  dates:
    - since: 2012-12-24
  lines:
    - name: 2ZL
  coords:
    lat: 55.6326
    lon: 37.7660
# Арбатско-Покровская
- name: Пятницкое шоссе
  dates:
    - since: 2012-12-28
  lines:
    - name: 3APL
  coords:
    lat: 55.8563
    lon: 37.3544
- name: Митино
  dates:
    - since: 2009-12-26
  lines:
    - name: 3APL
  coords:
    lat: 55.8547
    lon: 37.3622
- name: Волоколамская
  dates:
    - since: 2009-12-26
  lines:
    - name: 3APL
  coords:
    lat: 55.8354
    lon: 37.3822
- name: Мякинино
  dates:
    - since: 2009-12-26
  lines:
    - name: 3APL
  coords:
    lat: 55.8252
    lon: 37.3852
- name: Строгино
  dates:
    - since: 2008-01-07
  lines:
    - name: 3APL
  coords:
    lat: 55.8038
    lon: 37.4031
- name: Троице-Лыково
  dates:
    - since: 2019-01-01 # не построена
  lines:
    - name: 3APL
  coords:
    lat: 55.7919
    lon: 37.4006
- name: Крылатское
  dates:
    - since: 1989-12-31
  lines:
    - name: 3APL
  coords:
    lat: 55.7567
    lon: 37.4081
- name: Молодёжная
  dates:
    - since: 1965-07-05
  lines:
    - name: 3APL
  coords:
    lat: 55.7408
    lon: 37.4168
- name: Кунцевская
  dates:
    - since: 2008-01-07
  lines:
    - name: 3APL
  coords:
    lat: 55.7307
    lon: 37.4459
- name: Славянский бульвар
  dates:
    - since: 2008-09-07
  lines:
    - name: 3APL
  coords:
    lat: 55.7296
    lon: 37.4706
- name: Парк Победы
  dates:
    - since: 2003-05-06
  lines:
    - name: 3APL
  coords:
    lat: 55.7362
    lon: 37.5182
- name: Киевская
  dates:
    - since: 1953-04-05
  lines:
    - name: 3APL
  coords:
    lat: 55.7442
    lon: 37.5645
- name: Смоленская
  dates:
    - since: 1953-04-05
  lines:
    - name: 3APL
  coords:
    lat: 55.7474
    lon: 37.5823
- name: Арбатская
  dates:
    - since: 1953-04-05
  lines:
    - name: 3APL
  coords:
    lat: 55.7522
    lon: 37.6061
- name: Площадь Революции
  dates:
    - since: 1938-03-13
  lines:
    - name: 3APL
  coords:
    lat: 55.7566
    lon: 37.6216
- name: Курская
  dates:
    - since: 1938-03-13
  lines:
    - name: 3APL
  coords:
    lat: 55.7576
    lon: 37.6577
- name: Бауманская
  dates:
    - since: 1944-01-18
  lines:
    - name: 3APL
  coords:
    lat: 55.7730
    lon: 37.6806
- name: Электрозаводская
  dates:
    - since: 1944-05-15
  lines:
    - name: 3APL
  coords:
    lat: 55.7817
    lon: 37.7037
- name: Семёновская
  dates:
    - since: 1944-01-18
  lines:
    - name: 3APL
  coords:
    lat: 55.7833
    lon: 37.7208
- name: Партизанская
  dates:
    - since: 1944-01-18
  lines:
    - name: 3APL
  coords:
    lat: 55.7886
    lon: 37.7506
- name: Первомайская (х)
  dates:
    - since: 1954-09-24
      to: 1961-10-21
  lines:
    - name: 3APL
  coords:
    lat: 55.7894
    lon: 37.7744
- name: Измайловская
  dates:
    - since: 1961-10-21
  lines:
    - name: 3APL
  coords:
    lat: 55.7878
    lon: 37.7814
- name: Первомайская
  dates:
    - since: 1961-10-21
  lines:
    - name: 3APL
  coords:
    lat: 55.7948
    lon: 37.7993
- name: Щёлковская
  dates:
    - since: 1963-07-22
  lines:
    - name: 3APL
  coords:
    lat: 55.8094
    lon: 37.7986
# Филёвская
- name: Кунцевская
  dates:
    - since: 1965-08-31
  lines:
    - name: 4FL
  coords:
    lat: 55.7307
    lon: 37.4459
- name: Пионерская
  dates:
    - since: 1961-10-13
  lines:
    - name: 4FL
  coords:
    lat: 55.7360
    lon: 37.4671
- name: Филёвский парк
  dates:
    - since: 1961-10-13
  lines:
    - name: 4FL
  coords:
    lat: 55.7396
    lon: 37.4833
- name: Багратионовская
  dates:
    - since: 1961-10-13
  lines:
    - name: 4FL
  coords:
    lat: 55.7438
    lon: 37.4977
- name: Фили
  dates:
    - since: 1959-11-07
  lines:
    - name: 4FL
  coords:
    lat: 55.7460
    lon: 37.5150
- name: Кутузовская
  dates:
    - since: 1958-11-07
  lines:
    - name: 4FL
  coords:
    lat: 55.7399
    lon: 37.5344
- name: Студенческая
  dates:
    - since: 1958-11-07
  lines:
    - name: 4FL
  coords:
    lat: 55.7388
    lon: 37.5483
- name: Международная
  dates:
    - since: 2006-08-30
  lines:
    - name: 4FL
  coords:
    lat: 55.7483
    lon: 37.5339
- name: Выставочная
  dates:
    - since: 2005-09-10
  lines:
    - name: 4FL
  coords:
    lat: 55.7502
    lon: 37.5408
- name: Киевская
  dates:
    - since: 1935-05-15
      to: 1953-04-05
    - since: 1958-11-07
  lines:
    - name: 1SL
      since: 1935-05-15
      to: 1938-03-13
    - name: 3APL
      since: 1938-03-13
      to: 1953-04-05
    - name: 4FL
      since: 1958-11-07
  coords:
    lat: 55.7436
    lon: 37.5655
- name: Смоленская
  dates:
    - since: 1935-05-15
      to: 1953-04-05
    - since: 1958-11-07
  lines:
    - name: 1SL
      since: 1935-05-15
      to: 1938-03-13
    - name: 3APL
      since: 1938-03-13
      to: 1953-04-05
    - name: 4FL
      since: 1958-11-07
  coords:
    lat: 55.7488
    lon: 37.5825
- name: Арбатская
  dates:
    - since: 1935-05-15
      to: 1953-04-05
    - since: 1958-11-07
  lines:
    - name: 1SL
      since: 1935-05-15
      to: 1938-03-13
    - name: 3APL
      since: 1938-03-13
      to: 1953-04-05
    - name: 4FL
      since: 1958-11-07
  coords:
    lat: 55.7518
    lon: 37.6007
- name: Александровский сад
  dates:
    - since: 1935-05-15
      to: 1953-04-05
    - since: 1958-11-07
  lines:
    - name: 1SL
      since: 1935-05-15
      to: 1938-03-13
    - name: 3APL
      since: 1938-03-13
      to: 1953-04-05
    - name: 4FL
      since: 1958-11-07
  coords:
    lat: 55.7525
    lon: 37.6085




